ibge,id_mun,latitude,longitude,municipio,2000,2001,2002,2003,2004,2005,2006,2007,2008,2009,2010,2011,2012,2013,2014,2015,2016,2017,2018,2019,2020,2021,2022
4300034,430003,-31.864015,-54.164732,Aceguá,0,8000,8034,9747,11604,9500,5000,4183,4183,11000,11000,11223,6500,10000,9500,10000,8000,10254,9770,8249,8249,7229,5856
4300059,430005,-28.175055,-52.034633,Água Santa,60,25,10,10,10,10,4,4,2,2,2,2,0,0,0,0,0,0,0,0,0,0,0
4300109,430010,-29.645663,-53.258692,Agudo,6950,6820,8080,8060,8100,8100,8100,8986,9000,9255,8792,9255,9074,9184,9065,9253,9090,9108,9100,9100,9017,9145,9100
4300208,430020,-28.237729,-53.772819,Ajuricaba,110,60,40,30,30,30,30,20,20,10,10,5,5,0,0,0,0,0,0,0,0,0,0
4300307,430030,-27.661074,-54.767096,Alecrim,10,10,10,10,10,10,5,5,5,5,5,5,5,5,1,1,1,1,1,1,1,1,0
4300406,430040,-29.782043,-55.79587,Alegrete,43800,45000,49000,44000,49600,49931,50000,47500,50000,54000,57200,60203,57262,58350,59778,59611,53741,56762,56305,49641,53240,50178,52045
4300455,430045,-27.8373,-54.057366,Alegria,10,10,10,10,10,4,0,0,0,0,0,0,0,0,0,0,0,0,0,0,0,0,0
4300471,430047,-28.113726,-52.913715,Almirante Tamandaré do Sul,0,50,40,40,20,15,10,10,10,8,0,5,0,0,0,0,0,0,0,0,0,0,0
4300505,430050,-27.248769,-53.037366,Alpestre,150,150,150,150,150,150,150,150,150,150,70,5,3,2,1,1,1,3,5,5,5,5,5
4300554,430055,-28.774746,-52.990755,Alto Alegre,10,10,10,5,3,0,0,0,0,0,0,0,0,0,0,0,0,0,0,0,0,0,0
4300570,430057,-29.390139,-51.315816,Alto Feliz,6,6,6,6,6,2,2,2,2,2,2,1,2,0,0,0,0,0,0,0,0,0,0
4300604,430060,-29.997493,-51.077729,Alvorada,133,90,84,92,48,25,70,50,75,140,140,146,90,135,145,110,80,70,47,47,0,47,192
4300638,430063,-30.875148,-52.25127,Amaral Ferrador,355,403,453,453,850,600,600,550,550,550,550,550,550,500,500,506,506,506,506,206,153,219,223
4300646,430064,-27.356425,-53.192177,Ametista do Sul,19,19,19,19,19,19,19,19,19,19,19,10,10,0,0,0,0,5,0,5,5,3,3
4300661,430066,-28.631977,-51.573738,André da Rocha,5,3,3,1,0,0,0,0,0,0,0,0,0,0,0,0,0,0,0,0,0,0,0
4300703,430070,-28.970884,-52.015823,Anta Gorda,80,80,80,80,40,40,40,40,40,20,20,20,20,20,10,10,10,10,10,5,5,4,4
4300802,430080,-28.855438,-51.283577,Antônio Prado,3,3,3,3,0,0,0,0,0,0,0,0,0,0,0,0,0,0,0,0,0,0,0
4300851,430085,-30.909346,-51.501318,Arambaré,11744,11500,11500,11500,12812,13441,12256,14550,15785,15100,15497,16607,14350,13373,13373,15000,13690,13528,12400,14104,13978,12403,14092
4300877,430087,-29.617244,-50.925677,Araricá,2,2,2,2,2,2,2,2,2,2,2,2,2,2,2,2,2,2,2,0,0,0,0
4300901,430090,-27.394444,-52.303832,Aratiba,30,15,20,20,20,20,20,20,20,20,15,20,10,0,0,0,0,0,0,0,0,0,0
4301008,430100,-29.398891,-51.947449,Arroio do Meio,3,0,0,0,0,0,0,0,0,0,0,0,0,0,0,0,0,0,0,0,0,0,0
4301073,430107,-31.440644,-52.433302,Arroio do Padre,0,0,0,0,0,0,0,0,0,0,0,0,0,0,0,0,0,0,0,0,0,0,0
4301206,430120,-29.33586,-53.086396,Arroio do Tigre,60,60,30,20,20,20,20,20,20,0,0,0,0,0,0,0,0,0,0,0,0,0,0
4301107,430110,-30.090013,-51.733807,Arroio dos Ratos,40,60,70,4,0,2,0,0,0,0,0,0,0,0,0,0,0,0,0,0,0,0,0
4301305,430130,-32.236344,-53.082248,Arroio Grande,38000,35275,35000,33460,36000,36232,39000,38074,41089,41757,41757,41817,36440,35797,40000,41200,42281,44733,41766,32208,30263,34031,33777
4301404,430140,-28.873049,-52.179512,Arvorezinha,15,15,15,15,15,15,15,15,15,15,10,10,6,4,4,4,4,4,4,2,1,1,1
4301503,430150,-28.513352,-53.98947,Augusto Pestana,5,5,5,5,5,5,5,5,0,0,0,0,0,0,0,0,0,0,0,0,0,0,0
4301552,430155,-27.693787,-52.054176,Áurea,50,25,8,8,12,20,5,5,15,15,15,15,15,10,5,5,4,4,4,0,0,0,0
4301602,430160,-31.330502,-54.107083,Bagé,20349,12000,13360,12100,13636,13205,10965,4730,10384,12000,12000,13111,7614,9891,10000,10000,10935,11541,10248,8888,8253,8532,8190
4301636,430163,-30.239751,-50.236701,Balneário Pinhal,385,305,305,305,332,332,309,238,238,238,158,30,0,413,402,450,275,440,513,475,528,455,455
4301651,430165,-29.380864,-51.497538,Barão,22,22,22,22,10,8,8,8,8,8,8,8,8,8,8,5,5,5,5,1,1,1,1
4301701,430170,-27.617093,-52.37775,Barão de Cotegipe,47,44,44,44,44,44,44,44,44,30,20,15,10,10,5,3,0,0,0,0,0,0,0
4301750,430175,-30.390484,-51.737669,Barão do Triunfo,250,250,210,200,250,300,150,150,165,140,200,280,310,310,310,310,310,310,270,310,310,310,310
4301859,430185,-27.18807,-53.714413,Barra do Guarita,25,10,10,10,10,10,2,2,2,0,0,0,0,0,0,0,0,0,0,0,0,0,0
4301875,430187,-30.211075,-57.55706,Barra do Quaraí,19497,19300,20479,20479,22056,21625,24779,19908,22143,20980,22000,21500,20900,21560,23100,24422,26526,24694,22755,22873,23738,23441,23487
4301909,430190,-30.292675,-51.300874,Barra do Ribeiro,8800,8700,8900,8900,10112,11112,12000,12700,12637,14001,14459,14535,14063,12348,12659,13044,12961,13062,13250,13082,12486,12397,12394
4301925,430192,-27.408758,-52.414105,Barra do Rio Azul,10,10,10,10,10,10,10,10,10,10,3,3,1,1,1,0,0,0,0,0,0,0,2
4301958,430195,-27.923826,-53.036297,Barra Funda,12,12,12,12,10,10,5,5,5,4,0,0,0,0,0,0,0,0,0,1,1,1,1
4301800,430180,-27.68023,-51.460151,Barracão,100,70,70,20,10,20,20,10,5,5,3,2,0,0,0,0,0,0,0,0,0,0,0
4302006,430200,-29.087704,-52.587752,Barros Cassal,50,50,50,50,50,50,50,50,25,25,25,25,25,25,15,15,0,0,0,0,0,0,0
4302055,430205,-27.508584,-52.602225,Benjamin Constant do Sul,5,5,5,5,5,5,5,7,8,13,5,5,2,2,2,2,1,1,1,1,0,0,0
4302105,430210,-29.167402,-51.51556,Bento Gonçalves,4,2,3,3,3,3,3,3,3,3,3,3,3,3,2,1,1,0,1,0,0,0,0
4302154,430215,-27.666111,-53.312756,Boa Vista das Missões,25,25,25,25,25,25,25,25,25,25,4,4,2,2,2,1,5,5,5,5,3,3,3
4302204,430220,-27.671567,-54.109481,Boa Vista do Buricá,2,0,0,0,0,0,0,0,0,0,0,0,0,0,0,0,0,0,0,0,0,0,0
4302220,430222,-28.577434,-53.813735,Boa Vista do Cadeado,0,70,70,100,50,30,30,30,30,30,10,10,0,0,0,0,0,0,0,0,0,0,0
4302238,430223,-28.818488,-53.388705,Boa Vista do Incra,0,26,26,26,20,20,20,20,20,20,20,20,5,0,0,0,0,0,0,0,0,0,0
4302253,430225,-29.350119,-51.677272,Boa Vista do Sul,1,2,2,2,2,2,2,2,2,2,2,1,1,0,0,0,0,0,0,0,0,0,0
4302352,430235,-29.494485,-51.355519,Bom Princípio,25,25,25,25,25,0,0,0,0,4,4,4,4,4,4,4,5,5,5,5,5,5,3
4302378,430237,-27.546774,-53.866791,Bom Progresso,28,13,13,20,15,15,3,3,0,0,0,0,0,0,0,0,0,0,0,0,0,0,0
4302402,430240,-29.607423,-51.943847,Bom Retiro do Sul,0,0,0,16,21,15,9,10,19,10,8,33,49,34,34,34,34,34,34,34,34,34,34
4302451,430245,-29.305158,-52.42805,Boqueirão do Leão,30,30,25,25,25,25,25,25,15,15,15,18,18,18,18,12,12,3,3,3,3,3,3
4302501,430250,-28.730724,-54.909811,Bossoroca,900,300,300,50,200,170,50,55,90,108,108,0,0,0,0,0,0,0,0,0,0,0,0
4302584,430258,-28.36629,-53.772402,Bozano,0,10,10,10,10,10,10,10,5,5,5,5,5,0,0,0,0,0,0,0,0,0,0
4302600,430260,-27.619193,-53.744329,Braga,120,21,19,15,15,15,10,10,5,5,3,0,0,0,0,0,0,0,0,0,0,0,0
4302659,430265,-29.555528,-51.588916,Brochier,10,2,2,2,2,4,4,4,4,4,4,4,4,4,4,4,2,2,1,1,1,1,2
4302709,430270,-30.116144,-51.961483,Butiá,1100,1500,1200,1200,1250,1320,1200,1550,1550,1500,1300,1650,1200,1200,1200,1300,1200,800,1200,1200,160,800,700
4302808,430280,-30.514743,-53.487569,Caçapava do Sul,3020,3700,3300,3000,3800,3500,3800,3800,3800,4000,4000,3867,3000,3694,3600,3600,3600,3250,3120,2950,2714,2964,2696
4302907,430290,-29.880288,-54.827728,Cacequi,17500,16000,16000,17000,17000,17000,16000,16000,16500,16500,16500,17000,16500,15000,16000,16500,14354,13967,14537,11608,11156,12293,12273
4303004,430300,-30.04582,-52.893413,Cachoeira do Sul,29975,33950,33600,34500,39600,41154,38423,37270,38600,39360,37560,41000,33444,32950,33420,33068,30929,30100,28720,25522,25037,26135,25582
4303103,430310,-29.950629,-51.093677,Cachoeirinha,0,0,0,0,0,0,0,0,0,0,0,0,0,0,0,0,0,0,0,0,0,0,0
4303202,430320,-27.768232,-51.664113,Cacique Doble,100,10,10,10,10,10,5,5,5,5,1,0,5,0,0,0,0,0,0,0,0,0,0
4303301,430330,-28.291075,-54.637887,Caibaté,215,205,205,205,105,75,75,75,75,50,0,0,0,30,25,30,25,30,30,32,30,30,30
4303400,430340,-27.280941,-53.431895,Caiçara,130,130,130,130,130,130,130,130,130,10,10,10,10,10,5,5,5,12,5,5,5,5,5
4303509,430350,-30.850704,-51.814601,Camaquã,26020,25220,28788,29000,29850,29850,29250,27825,31375,33022,31510,33100,33870,32442,35163,34300,35507,35400,32658,29590,28730,31160,31110
4303558,430355,-28.589238,-52.203799,Camargo,5,5,5,5,5,5,8,8,8,4,2,0,0,0,0,0,0,0,0,0,0,0,0
4303673,430367,-28.796512,-51.095664,Campestre da Serra,15,10,5,3,3,0,0,0,0,0,0,0,0,0,0,0,0,0,0,0,0,0,0
4303707,430370,-27.99169,-54.845329,Campina das Missões,6,6,6,6,10,5,5,3,0,0,2,2,2,2,2,2,2,2,1,0,0,0,0
4303806,430380,-27.711601,-52.633104,Campinas do Sul,20,6,6,6,2,0,0,0,0,0,0,0,0,0,0,0,0,0,0,0,0,0,0
4303905,430390,-29.675685,-51.05887,Campo Bom,135,150,97,0,200,200,160,120,120,120,120,40,35,35,40,40,0,0,0,0,0,0,0
4304002,430400,-27.674493,-53.802814,Campo Novo,25,25,25,25,25,25,10,3,3,0,0,2,6,4,2,0,0,0,0,0,0,0,0
4304101,430410,-28.892132,-52.998915,Campos Borges,50,20,20,20,15,10,10,10,8,5,5,2,2,0,0,0,0,0,0,0,0,0,0
4304200,430420,-29.671285,-52.789668,Candelária,7270,7800,8005,8450,8560,8400,8200,8100,8000,8300,8056,8500,8590,8525,8650,8950,8850,8700,8700,7500,7000,6620,6320
4304309,430430,-27.951318,-54.752834,Cândido Godói,5,5,5,9,9,9,9,3,0,0,0,0,0,0,0,0,0,0,0,0,0,0,0
4304358,430435,-31.56101,-53.677805,Candiota,1364,850,1250,932,1155,1346,900,900,900,1100,1100,1189,650,753,800,700,602,890,440,1100,900,245,170
4304408,430440,-29.357972,-50.814867,Canela,5,5,3,3,4,5,5,5,2,1,0,2,0,0,0,0,0,0,0,0,0,0,0
4304507,430450,-31.39386,-52.676286,Canguçu,1210,1210,1210,1230,1240,750,750,750,780,890,890,825,890,775,740,1200,760,900,738,750,337,743,512
4304606,430460,-29.918697,-51.18103,Canoas,480,480,480,480,480,480,800,800,800,800,800,800,450,400,200,200,200,400,600,600,600,600,600
4304614,430461,-29.323525,-52.232383,Canudos do Vale,0,10,10,10,10,5,3,3,3,3,3,3,2,2,0,0,0,0,0,0,0,0,0
4304622,430462,-28.125975,-51.395158,Capão Bonito do Sul,0,10,10,1,1,1,0,0,0,0,0,0,0,0,0,0,0,0,0,0,0,0,0
4304630,430463,-29.761467,-50.020022,Capão da Canoa,150,150,150,150,450,450,450,450,300,300,300,150,0,0,0,5,48,48,150,150,0,0,0
4304655,430465,-28.931628,-54.554699,Capão do Cipó,0,0,100,100,50,70,45,30,30,23,7,0,0,0,0,0,0,0,0,0,0,0,0
4304663,430466,-31.766839,-52.487008,Capão do Leão,8520,8520,8520,8525,8525,7525,7025,7025,8181,8425,6997,7977,6622,7392,7319,7249,6464,7259,6597,6386,6167,6702,6850
4304689,430468,-29.701945,-51.321769,Capela de Santana,750,750,750,750,750,750,950,950,950,950,950,950,1800,1800,1800,1800,1800,1800,1800,1850,1850,1850,1850
4304697,430469,-29.2695,-51.985969,Capitão,5,5,1,1,1,2,2,2,2,1,1,1,1,1,0,0,0,0,0,0,0,0,0
4304671,430467,-30.14966,-50.508808,Capivari do Sul,11125,11125,11125,11493,15517,15748,12310,12610,12611,12263,14519,14744,13271,15243,15078,15200,15100,14684,11902,11168,9664,10203,9988
4304713,430471,-29.778637,-50.435756,Caraá,180,180,180,180,270,234,234,234,150,150,150,156,167,167,190,272,272,272,272,272,272,272,177
4304705,430470,-28.286511,-52.791897,Carazinho,100,50,10,10,5,5,5,5,5,4,0,0,0,0,0,0,0,0,0,0,0,0,0
4304804,430480,-29.298297,-51.503818,Carlos Barbosa,8,8,8,8,8,8,8,6,3,0,0,0,0,0,0,0,0,0,0,0,0,0,0
4304853,430485,-27.714892,-51.917576,Carlos Gomes,17,17,17,17,17,15,5,5,5,5,2,5,5,5,2,2,2,2,2,3,2,2,1
4304903,430490,-28.559874,-51.983233,Casca,30,30,30,30,5,0,0,0,0,0,0,0,0,0,0,0,0,0,0,0,0,0,0
4304952,430495,-28.273565,-51.692683,Caseiros,26,10,0,0,0,0,0,0,0,0,0,0,0,0,0,0,0,0,0,0,0,0,0
4305009,430500,-28.254234,-54.012387,Catuípe,200,350,330,80,45,15,15,10,5,4,4,4,0,0,0,0,0,0,0,0,0,0,0
4305108,430510,-29.166899,-51.17886,Caxias do Sul,10,3,3,3,1,0,0,0,0,0,0,0,0,0,0,0,0,0,0,0,0,0,0
4305116,430511,-27.762847,-52.002054,Centenário,70,50,50,50,45,30,5,5,5,5,3,5,5,5,5,8,5,5,5,5,6,6,6
4305124,430512,-31.852639,-52.814802,Cerrito,800,800,800,800,840,620,700,700,555,1061,1166,1242,1007,935,688,724,225,286,238,206,155,246,188
4305132,430513,-29.656287,-52.941978,Cerro Branco,1070,1170,926,926,926,930,930,930,900,950,950,1050,976,936,940,950,1000,1000,1150,1050,1050,1050,1030
4305157,430515,-27.60798,-53.165913,Cerro Grande,40,40,40,40,10,10,10,10,10,10,0,0,0,0,0,0,0,0,0,0,0,0,0
4305173,430517,-30.602029,-51.753103,Cerro Grande do Sul,756,756,756,606,654,745,745,745,745,745,745,745,745,745,745,745,745,704,704,600,550,660,550
4305207,430520,-28.147841,-54.739997,Cerro Largo,8,5,5,0,5,5,5,5,3,3,0,0,0,0,0,0,0,0,0,0,0,0,0
4305306,430530,-28.05845,-53.067277,Chapada,100,100,80,80,80,80,80,80,80,80,15,8,5,5,5,5,2,2,2,2,1,0,0
4305355,430535,-29.9568,-51.625006,Charqueadas,3750,2850,0,3200,2850,3000,3100,3100,3200,4000,4000,4400,4300,4552,4800,4800,5100,4674,4960,3902,3700,3900,4300
4305371,430537,-27.952831,-52.029412,Charrua,15,15,15,15,15,150,20,20,10,10,10,10,5,5,3,0,0,0,0,0,0,0,0
4305405,430540,-27.917365,-53.94575,Chiapetta,270,320,120,70,70,40,0,0,0,0,0,0,0,0,0,0,0,0,0,0,0,0,0
4305439,430543,-33.687567,-53.462675,Chuí,2268,2989,2000,2500,3200,3000,2344,3741,3505,3785,3665,4028,3004,3161,4000,3422,4121,3343,3044,3326,3009,3135,3215
4305447,430544,-30.757427,-51.978542,Chuvisca,3,3,3,0,0,0,0,0,0,0,0,0,2,2,3,3,8,10,6,4,6,6,6
4305454,430545,-30.18117,-50.209092,Cidreira,505,450,450,450,464,449,789,939,939,1114,718,1181,1072,1082,1072,1100,1060,1060,1380,1250,1236,1513,1156
4305504,430550,-28.344303,-51.883031,Ciríaco,60,60,60,60,30,15,0,0,0,0,0,0,0,0,0,0,0,0,0,0,0,0,0
4305587,430558,-29.392537,-51.868576,Colinas,3,1,1,0,0,0,0,0,0,0,0,0,0,0,0,0,0,0,0,0,0,0,0
4305603,430560,-28.522948,-52.993176,Colorado,12,12,8,8,8,8,8,8,8,4,2,2,0,0,0,0,0,0,0,0,0,0,0
4305702,430570,-28.205296,-53.488943,Condor,50,50,35,20,10,10,10,10,10,3,1,1,2,0,0,0,0,0,0,0,0,0,0
4305801,430580,-27.730411,-52.987739,Constantina,20,15,15,15,10,10,5,5,5,4,4,0,0,0,0,0,0,0,0,0,0,0,0
4305835,430583,-29.179257,-52.094603,Coqueiro Baixo,0,5,5,5,5,5,5,5,5,3,3,3,3,3,0,0,0,0,0,0,0,0,0
4305850,430585,-28.117428,-52.778801,Coqueiros do Sul,25,5,5,5,5,5,0,0,0,0,0,0,0,0,0,0,0,0,0,0,0,0,0
4305871,430587,-28.384541,-54.073662,Coronel Barros,10,10,10,10,10,5,0,0,0,0,0,0,0,0,0,0,0,0,0,0,0,0,0
4305900,430590,-27.717873,-53.709128,Coronel Bicaco,270,270,270,270,270,270,270,350,350,350,70,10,10,0,0,0,0,0,0,0,0,0,60
4305934,430593,-29.27271,-51.684935,Coronel Pilar,0,2,2,2,2,2,2,2,2,2,2,2,0,0,0,0,0,0,0,0,0,0,0
4305959,430595,-28.998576,-51.696434,Cotiporã,6,6,3,3,3,0,0,0,0,0,0,0,0,0,0,0,0,0,0,0,0,0,0
4305975,430597,-28.121342,-52.300278,Coxilha,10,10,10,5,5,4,4,4,4,4,2,2,0,0,0,0,0,0,0,0,0,0,0
4306007,430600,-27.498012,-54.100035,Crissiumal,26,26,26,26,26,26,5,5,5,5,1,3,0,0,0,0,0,0,0,0,0,0,0
4306056,430605,-30.999345,-52.04941,Cristal,5110,5040,5020,4520,5020,5660,5655,5005,5005,7210,7010,7050,6030,5550,5500,5580,5000,5500,5000,5000,5080,5080,5000
4306072,430607,-27.45363,-53.249184,Cristal do Sul,20,20,20,20,20,20,20,20,20,20,18,5,3,1,0,0,0,1,0,0,0,1,1
4306106,430610,-28.642447,-53.605241,Cruz Alta,220,135,130,50,180,180,80,80,60,30,0,0,0,0,0,0,0,0,0,0,0,0,0
4306130,430613,-27.664888,-52.648143,Cruzaltense,0,4,4,4,3,3,3,3,3,3,3,3,3,3,3,3,0,0,0,0,0,0,0
4306205,430620,-29.508291,-51.991576,Cruzeiro do Sul,440,440,490,570,705,710,710,710,710,710,760,760,610,780,780,780,775,672,672,632,652,672,632
4306304,430630,-28.384612,-51.852249,David Canabarro,10,7,7,7,7,7,0,0,0,0,0,0,0,0,0,0,0,0,0,0,0,0,0
4306320,430632,-27.265391,-53.865119,Derrubadas,25,15,15,15,5,5,3,3,0,0,0,0,0,0,0,0,0,0,0,0,0,0,0
4306353,430635,-28.226876,-55.048209,Dezesseis de Novembro,90,5,5,5,5,5,0,0,0,0,0,0,0,0,0,0,0,0,0,0,0,0,0
4306379,430637,-29.701964,-54.21356,Dilermando de Aguiar,3900,3900,2260,2270,2530,2120,2110,2100,3400,3400,3400,3400,3060,3280,3280,2700,2000,2000,2700,2700,2500,2700,2700
4306403,430640,-29.584159,-51.087619,Dois Irmãos,3,3,3,2,2,0,1,1,1,1,1,1,1,1,1,1,1,1,1,0,0,0,0
4306429,430642,-27.657537,-53.530865,Dois Irmãos das Missões,55,55,22,22,22,22,22,22,22,22,1,0,0,0,0,0,0,0,0,0,0,0,0
4306452,430645,-28.975205,-51.835103,Dois Lajeados,30,30,25,25,25,25,15,15,5,0,0,0,0,0,0,0,0,1,0,0,0,0,0
4306502,430650,-30.708598,-52.103934,Dom Feliciano,140,140,150,150,100,100,90,50,50,85,50,55,55,55,55,55,55,35,35,30,30,30,25
4306601,430660,-30.981267,-54.67413,Dom Pedrito,34500,43000,43500,43000,45000,46250,43900,27600,46600,46600,42400,50585,32800,40870,45650,47366,45892,46873,44990,38923,35841,30291,33000
4306551,430655,-29.370187,-49.84955,Dom Pedro de Alcântara,203,203,353,353,278,278,275,275,275,275,275,227,226,120,50,50,50,80,80,100,100,100,200
4306700,430670,-29.624852,-53.362333,Dona Francisca,2270,2270,2270,2270,2290,2300,2300,2350,2350,2350,2350,2350,2350,2350,2350,2350,2350,2350,2350,2350,2350,2350,2350
4306734,430673,-27.509213,-54.358268,Doutor Maurício Cardoso,50,50,50,50,10,3,5,2,2,2,2,2,2,2,2,2,2,2,2,2,0,0,0
4306759,430675,-29.099031,-51.984904,Doutor Ricardo,5,5,5,5,5,5,5,5,5,3,3,2,1,1,2,3,0,0,0,0,0,0,0
4306767,430676,-29.999293,-51.310419,Eldorado do Sul,4721,4721,6600,6600,7659,8800,8745,8644,8405,9340,9667,10901,10372,10552,11600,11781,11616,11616,11616,11583,11386,11386,11854
4306809,430680,-29.239917,-51.873023,Encantado,0,0,0,0,0,0,2,2,2,2,2,2,2,2,2,0,0,0,0,0,0,0,0
4306908,430690,-30.543657,-52.522045,Encruzilhada do Sul,1505,1505,1515,1520,1550,1250,1050,1050,1050,1510,1510,1560,1560,1500,1500,1570,1500,1500,1500,1350,700,1034,1092
4306924,430692,-27.708587,-52.911921,Engenho Velho,5,5,5,5,5,5,5,5,5,0,0,0,0,0,0,0,0,0,0,0,0,0,0
4306957,430695,-27.528858,-52.735068,Entre Rios do Sul,31,31,25,15,15,5,3,3,3,3,1,1,0,0,0,0,0,0,0,0,0,0,0
4306932,430693,-28.362794,-54.271432,Entre-ijuís,60,40,40,40,27,12,12,12,12,12,12,12,0,0,0,0,0,0,0,0,0,0,0
4306973,430697,-27.849196,-52.299711,Erebango,20,20,20,20,10,10,10,10,10,10,10,10,10,10,5,3,4,2,4,2,2,2,2
4307005,430700,-27.633406,-52.275877,Erechim,20,3,3,3,0,0,0,0,0,0,0,0,0,0,0,0,0,0,0,0,0,0,0
4307054,430705,-28.497155,-52.572176,Ernestina,30,26,26,10,5,5,3,2,2,3,3,4,0,0,0,0,0,0,0,0,0,0,0
4307203,430720,-27.393337,-52.570112,Erval Grande,20,15,20,10,10,10,10,7,7,5,1,2,2,2,2,2,2,2,2,2,4,4,3
4307302,430730,-27.549417,-53.509573,Erval Seco,175,175,175,125,125,125,65,65,65,65,22,0,0,0,0,0,0,0,0,0,0,0,0
4307401,430740,-28.057276,-51.188794,Esmeralda,43,20,20,8,6,0,0,0,0,0,0,0,0,0,0,0,0,0,0,0,0,0,0
4307450,430745,-27.359944,-53.992768,Esperança do Sul,10,10,10,10,10,10,3,3,0,1,1,0,1,0,0,0,0,0,0,0,0,0,0
4307500,430750,-28.731445,-52.841927,Espumoso,23,20,17,17,17,17,10,10,10,10,10,5,0,0,0,0,0,0,0,0,0,0,0
4307559,430755,-27.909006,-52.270486,Estação,10,10,5,5,1,1,2,2,0,0,0,0,0,0,0,0,0,0,0,0,0,0,0
4307708,430770,-29.852186,-51.143837,Esteio,260,260,340,470,470,460,350,350,350,350,300,350,400,400,200,200,200,200,450,450,450,450,450
4307807,430780,-29.503472,-51.97026,Estrela,1,1,1,1,1,0,0,0,0,0,0,0,0,0,0,0,0,0,0,0,0,0,0
4307815,430781,-29.179661,-53.160294,Estrela Velha,15,10,10,5,0,3,0,0,0,0,0,0,0,0,0,0,0,0,0,0,0,0,0
4307831,430783,-28.52506,-54.148113,Eugênio de Castro,100,50,50,10,12,10,10,10,1,2,0,0,0,0,0,0,0,0,0,0,0,0,0
4307906,430790,-29.223679,-51.34835,Farroupilha,10,10,10,10,10,5,3,3,0,0,0,0,0,0,0,0,0,0,0,0,0,0,0
4308003,430800,-29.57433,-53.439065,Faxinal do Soturno,1815,1815,1820,1815,1915,1965,2015,2002,2002,2002,2000,2001,2000,2000,2000,2000,2000,2000,2000,1900,1900,1900,1900
4308052,430805,-27.425416,-52.670591,Faxinalzinho,40,40,40,40,40,0,40,10,10,10,10,3,1,0,0,0,0,0,0,0,0,0,0
4308078,430807,-29.588575,-51.821183,Fazenda Vilanova,0,0,0,0,0,0,0,0,2,2,0,0,0,0,0,0,0,0,0,0,0,0,0
4308102,430810,-29.453971,-51.310102,Feliz,10,10,10,5,5,5,5,5,5,5,5,5,5,0,0,0,0,0,0,0,0,0,0
4308201,430820,-29.031142,-51.182221,Flores da Cunha,5,5,2,2,2,0,0,0,0,0,0,0,0,0,0,0,0,0,0,0,0,0,0
4308250,430825,-27.862509,-52.085607,Floriano Peixoto,60,60,30,30,5,5,5,0,0,0,0,0,0,0,0,0,0,0,0,0,0,0,0
4308300,430830,-28.982168,-52.344953,Fontoura Xavier,20,20,15,16,8,8,4,4,4,4,2,2,0,0,0,0,0,0,0,0,0,0,0
4308409,430840,-29.997634,-53.500294,Formigueiro,7000,9200,9200,9220,9220,8805,9005,9000,9503,9603,9409,9602,8700,8465,9500,9250,8700,9510,9510,9500,8175,7500,8320
4308433,430843,-29.380634,-52.096917,Forquetinha,0,2,2,2,2,2,2,2,2,2,1,1,0,0,0,0,0,0,0,0,0,0,0
4308458,430845,-28.787883,-53.235523,Fortaleza dos Valos,30,27,15,6,3,3,3,3,3,2,2,2,0,0,0,0,0,0,0,0,0,0,0
4308508,430850,-27.358882,-53.400777,Frederico Westphalen,105,105,105,105,105,105,105,50,50,50,50,50,5,5,2,2,6,6,6,5,5,5,5
4308607,430860,-29.254549,-51.529548,Garibaldi,0,0,1,1,1,1,0,0,0,0,0,0,0,0,0,0,0,0,0,0,0,0,0
4308656,430865,-28.189477,-55.634072,Garruchos,2400,1500,1500,1500,900,903,700,370,350,398,525,960,885,880,940,700,737,360,215,215,180,180,109
4308706,430870,-27.583858,-52.100138,Gaurama,20,20,20,20,20,20,20,20,20,20,20,15,10,5,5,5,3,0,0,0,0,0,1
4308805,430880,-29.902984,-51.763431,General Câmara,105,2100,2100,2130,2250,2250,1760,1760,2000,2000,2000,2135,1800,1800,1800,1800,1859,1953,2000,2133,2112,2090,2100
4308854,430885,-28.433848,-52.034524,Gentil,18,18,18,18,18,10,10,10,10,10,10,10,0,0,0,0,0,0,0,0,0,0,0
4308904,430890,-27.875912,-52.249574,Getúlio Vargas,40,30,20,20,5,3,3,3,3,3,0,0,0,0,0,0,0,0,0,0,0,0,0
4309001,430900,-28.029744,-54.35084,Giruá,350,220,220,90,90,50,50,50,50,50,50,30,30,0,0,0,0,0,0,0,0,0,0
4309050,430905,-29.877134,-50.786207,Glorinha,1500,1500,1500,1500,1198,1198,1198,1198,870,870,1300,1938,1938,1938,1920,2100,1950,2000,2000,2000,1900,1390,1030
4309100,430910,-29.379738,-50.871946,Gramado,10,6,6,6,4,0,0,0,0,0,0,0,0,0,0,0,0,0,0,0,0,0,0
4309126,430912,-27.444385,-52.918218,Gramado dos Loureiros,38,30,30,30,30,26,5,1,1,2,2,2,2,2,2,0,0,0,0,0,0,0,0
4309159,430915,-29.269936,-52.577838,Gramado Xavier,10,10,10,5,5,5,5,5,5,5,5,5,5,5,5,5,5,5,5,5,5,5,5
4309209,430920,-29.945519,-50.990793,Gravataí,430,430,550,550,550,500,550,452,452,900,725,725,503,500,500,500,500,500,800,800,800,800,800
4309258,430925,-28.540672,-51.691047,Guabiju,10,10,10,5,5,0,0,0,0,0,0,0,0,0,0,0,0,0,0,0,0,0,0
4309308,430930,-30.108602,-51.314684,Guaíba,2460,2363,2903,2903,2433,3180,3469,3741,3728,3762,3798,3959,3649,3990,3900,4041,3948,3952,3950,3929,3876,3876,3954
4309407,430940,-28.849134,-51.890651,Guaporé,30,30,20,20,10,10,10,10,10,3,3,3,1,1,1,1,1,1,1,1,0,0,0
4309506,430950,-28.141779,-54.560556,Guarani das Missões,40,40,40,40,15,15,15,15,5,5,0,0,0,0,0,40,0,0,0,0,0,0,0
4309555,430955,-29.549049,-51.41404,Harmonia,3,3,3,3,3,3,3,3,3,3,3,3,3,3,3,3,0,0,0,0,0,0,0
4307104,430710,-32.026744,-53.394338,Herval,2880,400,400,240,240,644,644,500,400,550,600,650,480,500,550,550,720,700,720,150,0,350,160
4309571,430957,-29.457044,-52.650171,Herveiras,15,15,15,15,15,10,10,10,2,2,2,0,0,0,0,0,0,0,0,0,0,0,0
4309605,430960,-27.630097,-54.308792,Horizontina,25,25,25,25,8,3,3,0,0,0,0,0,0,0,0,0,0,0,0,0,0,0,0
4309654,430965,-31.405098,-53.867825,Hulha Negra,2000,3000,2550,699,875,1790,1500,600,1100,1100,1100,1542,1200,1100,1100,1200,1235,938,812,545,600,543,350
4309704,430970,-27.56149,-53.976506,Humaitá,20,0,0,0,0,0,0,0,0,0,0,0,0,0,0,0,0,0,0,0,0,0,0
4309753,430975,-29.420744,-53.1332,Ibarama,10,10,15,15,20,12,6,6,3,3,3,3,5,5,5,5,8,10,8,8,8,8,5
4309803,430980,-28.04885,-51.857252,Ibiaçá,18,16,16,10,5,5,5,5,5,5,5,5,2,2,2,0,0,0,0,0,0,0,0
4309902,430990,-28.369227,-51.635324,Ibiraiaras,50,50,25,10,0,0,0,0,0,0,0,0,0,0,0,0,0,0,0,0,0,0,0
4309951,430995,-28.61502,-52.519386,Ibirapuitã,50,44,44,44,44,44,25,25,20,20,15,10,0,0,0,0,0,0,0,0,0,0,0
4310009,431000,-28.627608,-53.088354,Ibirubá,35,35,45,45,28,28,8,8,8,8,8,5,15,10,5,3,3,3,10,0,0,0,0
4310108,431010,-29.57222,-50.798711,Igrejinha,20,10,10,10,10,8,6,6,6,6,5,6,3,3,1,1,0,0,0,0,0,1,0
4310207,431020,-28.388537,-53.918067,Ijuí,110,80,80,80,80,30,50,50,50,30,30,15,15,10,10,5,0,0,0,0,0,0,0
4310306,431030,-28.929153,-52.122157,Ilópolis,2,2,3,3,4,4,3,3,3,3,3,3,3,3,3,3,3,2,2,2,2,2,2
4310330,431033,-29.974778,-50.13058,Imbé,120,120,120,120,120,120,120,120,0,0,0,0,0,0,0,0,0,0,0,0,0,0,0
4310405,431040,-27.847332,-54.188108,Independência,130,130,130,130,130,80,50,30,30,0,0,8,8,8,8,8,8,8,8,8,0,0,0
4310413,431041,-27.880454,-54.012546,Inhacorá,18,10,10,10,10,10,10,10,5,0,0,0,0,0,0,0,0,0,0,0,0,0,0
4310439,431043,-28.818328,-51.27991,Ipê,15,15,15,15,15,0,0,0,0,0,0,0,0,0,0,0,0,0,0,0,0,0,0
4310462,431046,-27.935984,-52.425061,Ipiranga do Sul,5,5,5,5,0,0,0,0,0,0,0,0,0,0,0,0,0,0,0,0,0,0,0
4310504,431050,-27.192282,-53.264296,Iraí,50,50,50,50,50,50,50,50,50,50,30,30,10,10,10,10,3,8,3,3,3,3,3
4310553,431055,-28.802205,-55.232723,Itacurubi,4000,3000,1800,1800,2550,2038,2000,1600,2100,1523,1650,1285,1320,670,760,798,760,750,750,750,625,750,0
4310579,431057,-28.780296,-52.172367,Itapuca,10,10,5,3,3,3,3,3,3,0,0,0,0,0,0,0,0,0,0,0,0,0,0
4310603,431060,-29.128637,-56.557133,Itaqui,59563,53023,54765,49651,58480,57423,62000,54824,65500,65500,65550,73714,70800,81984,81222,82500,74190,79000,77000,71357,66400,58209,60148
4310652,431065,-29.500248,-50.101782,Itati,0,25,10,10,10,10,10,10,0,0,0,0,0,0,0,0,0,0,0,0,0,0,0
4310702,431070,-27.383292,-52.452443,Itatiba do Sul,9,9,9,11,11,0,5,5,5,2,2,2,0,0,0,0,0,0,0,0,0,0,0
4310751,431075,-29.519534,-53.580886,Ivorá,40,35,35,35,35,35,35,35,40,40,45,45,50,50,50,50,50,50,50,50,50,40,40
4310801,431080,-29.594157,-51.159574,Ivoti,1,0,0,0,0,0,0,0,0,0,0,0,0,0,0,0,0,0,0,0,0,0,0
4310850,431085,-27.631222,-53.284389,Jaboticaba,120,120,120,120,120,120,120,120,120,120,15,15,10,10,0,0,0,0,0,0,0,0,0
4310876,431087,-29.033816,-53.056551,Jacuizinho,0,9,9,8,6,6,6,6,6,6,6,4,0,0,0,0,0,0,0,0,0,0,0
4310900,431090,-27.728494,-52.543173,Jacutinga,35,23,23,23,15,15,2,2,2,2,2,0,0,0,0,0,0,0,0,0,0,0,0
4311007,431100,-32.563569,-53.377523,Jaguarão,20830,18600,18117,18000,17232,19670,17800,17800,20200,21200,20594,21450,20312,19952,22188,21600,23113,21475,20303,18932,18108,18019,17620
4311106,431110,-29.497347,-54.693847,Jaguari,2550,2350,2350,2380,2480,2320,2450,2450,2450,2450,2300,2400,1800,2205,2200,2197,2180,2200,2198,1980,1887,1850,2100
4311122,431112,-28.880568,-50.358037,Jaquirana,2,2,2,0,0,0,0,0,0,0,0,0,0,0,0,0,0,0,0,0,0,0,0
4311130,431113,-29.290081,-54.219936,Jari,40,35,25,40,30,30,30,0,0,0,0,0,0,0,0,0,0,0,0,0,0,0,0
4311155,431115,-28.645624,-54.115965,Jóia,75,75,50,30,30,10,5,10,10,10,10,10,10,0,0,0,0,0,0,0,2,2,2
4311205,431120,-29.226449,-53.6831,Júlio de Castilhos,300,90,120,120,80,50,50,30,20,10,10,5,0,0,0,0,0,0,0,0,0,0,0
4311239,431123,-29.494131,-53.016983,Lagoa Bonita do Sul,0,5,5,5,5,5,3,3,3,3,0,0,0,0,0,0,0,0,0,0,0,0,0
4311270,431127,-28.569468,-52.857835,Lagoa dos Três Cantos,5,5,5,5,5,5,5,5,3,0,0,0,0,0,0,0,0,0,0,0,0,0,0
4311304,431130,-28.20887,-51.527229,Lagoa Vermelha,50,20,10,10,10,10,0,0,0,0,0,0,0,0,0,0,0,0,0,0,0,0,0
4311254,431125,-29.224316,-52.775029,Lagoão,55,55,55,55,55,35,30,30,30,30,15,15,10,5,0,0,0,0,0,0,0,0,0
4311403,431140,-29.465454,-51.967828,Lajeado,5,1,1,1,1,1,0,0,0,0,0,0,0,0,0,0,0,0,0,0,0,0,0
4311429,431142,-27.690769,-53.181387,Lajeado do Bugre,15,15,15,15,15,15,20,20,20,20,3,3,0,0,0,0,0,0,0,0,0,0,0
4311502,431150,-30.81201,-53.898477,Lavras do Sul,1470,1470,2500,2500,3090,3090,3100,3100,3100,3500,3500,3100,3100,3100,3100,3100,3100,3386,3375,3753,3055,3093,3123
4311601,431160,-27.59647,-53.074861,Liberato Salzano,20,20,20,20,20,20,20,20,20,20,5,0,0,0,0,0,0,0,0,0,0,0,0
4311627,431162,-29.600804,-51.208155,Lindolfo Collor,5,5,5,5,1,0,0,0,0,0,0,0,0,0,0,0,0,0,0,0,0,0,0
4311643,431164,-29.462639,-51.201902,Linha Nova,8,8,8,8,8,8,8,8,5,5,5,5,5,5,5,5,5,5,5,5,3,3,1
4311718,431171,-29.146144,-56.063613,Maçambará,17369,17624,20030,17333,20884,17500,18140,13964,17050,18050,18050,18090,13605,15298,15808,16200,16514,16000,16000,20605,20605,17895,20110
4311700,431170,-27.56814,-51.667507,Machadinho,10,10,10,3,3,0,0,0,0,0,0,0,0,0,0,0,0,1,2,2,2,2,1
4311734,431173,-29.210649,-49.936514,Mampituba,1206,1206,1206,1201,1201,888,888,922,1115,1115,1115,1280,900,900,900,900,900,900,900,900,900,900,1300
4311759,431175,-29.580537,-55.491663,Manoel Viana,3500,4000,3960,3200,3000,4153,4150,3735,4000,4100,4440,4350,3793,3470,3064,3006,2789,3362,2618,2600,2542,2600,2542
4311775,431177,-29.679137,-50.203395,Maquiné,20,20,20,20,350,350,350,350,350,350,500,350,350,350,350,350,350,350,380,385,385,385,270
4311791,431179,-29.555323,-51.555567,Maratá,10,10,10,10,10,10,10,10,10,10,10,10,10,10,10,10,0,0,0,0,0,0,0
4311809,431180,-28.448454,-52.196777,Marau,150,120,120,100,70,60,70,50,50,20,2,2,0,0,0,0,0,0,0,0,0,0,0
4311908,431190,-27.461391,-51.913319,Marcelino Ramos,25,25,25,25,25,0,25,25,25,25,10,10,10,0,0,0,0,0,0,0,0,0,0
4311981,431198,-30.353622,-51.587343,Mariana Pimentel,502,502,502,502,502,502,602,602,602,622,752,752,730,810,810,915,915,915,915,800,800,800,900
4312005,431200,-27.352613,-52.148892,Mariano Moro,25,15,15,15,15,15,15,10,10,6,6,6,2,0,0,0,0,0,0,0,0,0,0
4312054,431205,-29.329137,-52.097804,Marques de Souza,19,19,19,12,12,12,12,12,12,10,4,5,4,2,0,0,0,0,0,0,0,0,0
4312104,431210,-29.569392,-54.452435,Mata,1600,1600,1600,1600,1600,1600,1600,1600,1600,1800,1800,1750,1300,1300,1300,1300,1300,1800,1300,1170,1170,1300,1805
4312138,431213,-28.275762,-52.197261,Mato Castelhano,20,20,15,15,20,15,15,10,10,10,10,10,5,5,5,5,5,5,5,5,5,5,5
4312153,431215,-29.52483,-52.133029,Mato Leitão,20,0,0,3,3,1,0,0,0,0,0,0,0,0,0,0,0,0,0,0,0,0,0
4312179,431217,-28.255816,-54.616837,Mato Queimado,0,0,3,3,1,0,0,0,0,0,0,0,0,0,0,0,0,0,0,0,0,0,0
4312203,431220,-27.634941,-51.801718,Maximiliano de Almeida,20,20,20,20,20,20,10,2,2,2,2,2,2,2,2,0,0,0,0,0,0,0,0
4312252,431225,-30.12244,-52.05128,Minas do Leão,3000,3663,3700,3600,3700,3700,4000,4000,5500,5000,4200,4100,3020,2900,2900,2900,1700,1791,1800,1800,1692,1600,1600
4312302,431230,-27.496076,-53.685994,Miraguaí,32,17,10,10,10,10,10,10,10,10,5,0,0,0,0,0,0,0,0,0,0,0,0
4312351,431235,-28.653207,-52.076108,Montauri,0,0,0,0,0,1,1,0,0,0,0,0,0,0,0,0,0,0,0,0,0,0,0
4312377,431237,-28.685072,-50.782834,Monte Alegre dos Campos,1,1,0,0,0,0,0,0,0,0,0,0,0,0,0,0,0,0,0,0,0,0,0
4312401,431240,-29.688119,-51.461299,Montenegro,260,260,260,260,260,260,410,410,410,410,410,410,410,410,410,410,410,450,450,300,300,300,300
4312427,431242,-28.693351,-52.692826,Mormaço,50,50,50,20,20,15,5,2,2,2,2,0,0,0,0,0,0,0,0,0,0,0,0
4312443,431244,-29.362964,-49.932763,Morrinhos do Sul,915,915,1215,1215,857,1460,1460,1240,1240,1445,1445,1435,1445,1440,1445,1445,1445,1445,1445,1445,1445,1445,1445
4312450,431245,-31.582203,-52.65778,Morro Redondo,50,0,0,0,0,0,0,0,0,0,0,0,0,0,0,0,0,0,0,0,0,0,0
4312476,431247,-29.539342,-51.080088,Morro Reuter,35,35,3,3,3,3,3,3,3,3,3,3,3,3,3,3,3,3,3,3,3,3,3
4312500,431250,-31.108225,-50.919159,Mostardas,34600,33000,33000,32000,34022,37160,33296,33397,35540,36250,37069,37886,37786,37786,37900,38919,39896,39676,38807,33160,30247,31620,32000
4312609,431260,-29.165615,-51.866056,Muçum,2,2,2,2,2,0,2,2,2,1,0,0,0,0,0,0,0,0,0,0,0,0,0
4312617,431261,-28.318913,-51.184602,Muitos Capões,24,30,20,20,1,1,0,0,0,0,0,0,0,0,0,0,0,0,0,0,0,0,0
4312625,431262,-28.330265,-51.768701,Muliterno,20,20,25,25,30,15,15,10,6,6,3,3,0,0,0,0,0,0,0,0,0,0,0
4312658,431265,-28.459907,-52.819279,Não-Me-Toque,30,30,10,10,10,10,8,8,8,5,0,0,0,0,0,0,0,0,0,0,0,0,0
4312674,431267,-28.536215,-52.462401,Nicolau Vergueiro,28,28,26,26,15,15,15,12,8,5,2,0,0,0,0,0,0,0,0,0,0,0,0
4312708,431270,-27.354665,-52.776189,Nonoai,80,60,60,60,60,48,48,48,30,20,10,10,5,3,3,2,0,0,0,0,0,0,0
4312757,431275,-28.676564,-52.167134,Nova Alvorada,10,10,8,8,8,8,8,8,8,0,0,0,0,0,0,0,0,1,2,1,0,0,0
4312807,431280,-28.658176,-51.742165,Nova Araçá,5,5,3,2,2,0,0,0,0,0,0,0,0,0,0,0,0,0,0,0,0,0,0
4312906,431290,-28.723469,-51.703231,Nova Bassano,20,20,10,30,30,0,0,0,0,0,0,0,0,0,0,0,0,0,0,0,0,0,0
4312955,431295,-27.987968,-52.981477,Nova Boa Vista,5,5,5,5,5,5,5,5,5,4,4,0,0,0,0,0,0,0,0,1,2,2,2
4313003,431300,-29.216511,-52.017984,Nova Bréscia,10,6,6,6,8,8,8,8,8,5,3,2,1,1,1,0,0,0,0,0,0,0,0
4313011,431301,-27.612098,-54.104114,Nova Candelária,2,2,2,2,2,2,0,0,0,0,0,0,0,0,0,0,0,0,0,0,0,0,0
4313037,431303,-29.404596,-54.835873,Nova Esperança do Sul,400,400,400,390,430,440,430,430,300,300,230,300,230,230,230,195,220,200,200,200,180,200,80
4313060,431306,-29.585748,-50.903793,Nova Hartz,11,11,11,5,5,5,5,5,5,5,5,5,5,5,5,0,0,0,1,1,1,0,0
4313086,431308,-29.030046,-51.306825,Nova Pádua,10,5,0,0,0,0,0,0,0,0,0,0,0,0,0,0,0,0,0,0,0,0,0
4313102,431310,-29.473026,-53.470635,Nova Palma,145,150,155,165,180,180,175,175,175,175,175,150,150,150,150,150,150,150,150,150,150,150,200
4313201,431320,-29.376209,-51.106954,Nova Petrópolis,10,10,8,8,8,8,2,2,2,2,2,2,2,0,0,0,0,0,0,0,0,0,0
4313300,431330,-28.783945,-51.608996,Nova Prata,5,5,3,0,0,0,0,0,0,0,0,0,1,1,0,0,0,0,0,0,0,0,0
4313334,431333,-28.082645,-53.706937,Nova Ramada,55,55,35,35,30,30,30,20,20,13,8,2,0,0,0,0,0,0,0,0,0,0,0
4313359,431335,-28.984749,-51.405157,Nova Roma do Sul,10,5,5,0,0,0,0,0,0,0,0,0,0,0,0,0,0,0,0,0,0,0,0
4313375,431337,-29.848616,-51.275211,Nova Santa Rita,2000,2000,1600,1600,1600,1500,1700,2300,2300,3500,3000,2533,3900,3900,3900,3900,4100,4000,4100,4100,4100,4100,4300
4313490,431349,-27.906788,-53.113499,Novo Barreiro,30,30,30,30,30,30,30,30,30,30,10,10,5,0,0,0,0,0,0,0,0,0,0
4313391,431339,-29.736255,-52.955086,Novo Cabrais,1610,1610,1625,1915,1915,2028,2006,2067,2100,2100,2100,2100,2000,1900,1950,1950,1950,1650,1650,1650,1650,1650,1550
4313425,431342,-27.578401,-54.503384,Novo Machado,14,14,14,14,14,9,5,5,5,0,0,5,5,5,5,5,5,0,5,5,0,0,0
4313441,431344,-27.563558,-53.185703,Novo Tiradentes,20,20,20,20,20,20,20,20,20,20,0,0,0,0,0,0,0,0,0,0,0,0,0
4313466,431346,-27.748115,-53.064109,Novo Xingu,0,10,3,3,3,3,3,3,3,4,4,0,0,0,0,0,0,0,0,0,0,0,0
4313508,431350,-29.892697,-50.266798,Osório,2730,1810,3610,3610,5015,5015,5015,5015,3000,3000,3000,3500,3670,3670,3600,3500,3500,4000,4000,4000,4000,4200,4225
4313607,431360,-27.703308,-51.761597,Paim Filho,60,60,60,60,60,30,30,15,15,5,5,5,5,5,2,0,0,0,0,0,0,0,0
4313656,431365,-30.260067,-50.506052,Palmares do Sul,17180,15462,15462,15872,20721,23268,19212,18865,18865,19684,19684,23148,23118,23220,21249,23350,22500,19500,19300,12845,11412,13000,13000
4313706,431370,-27.900621,-53.314954,Palmeira das Missões,350,347,347,347,347,347,350,350,350,150,350,0,0,0,0,0,0,0,0,0,0,0,0
4313805,431380,-27.35602,-53.555546,Palmitinho,80,80,80,80,80,80,80,80,80,40,40,40,0,0,0,0,0,0,0,2,2,2,2
4313904,431390,-28.292731,-53.500265,Panambi,25,25,25,25,25,25,20,10,10,10,10,10,5,0,0,0,0,0,0,0,0,0,0
4313953,431395,-30.194552,-52.3739,Pantano Grande,4200,4000,4000,4000,5000,5000,5000,5000,5000,5000,5500,5800,4800,4941,4650,4650,4180,4420,4420,4530,4200,4200,4350
4314001,431400,-28.599621,-51.782096,Paraí,8,8,4,2,1,0,1,1,0,0,0,0,0,0,0,0,0,0,0,0,0,0,0
4314027,431402,-29.731314,-53.1791,Paraíso do Sul,2860,3240,3750,3810,3860,3800,3800,4088,4088,4168,3863,4118,4038,3952,3960,3990,3765,3855,3765,3855,3943,3800,3800
4314050,431405,-29.631749,-50.834866,Parobé,0,0,1,12,12,36,18,18,18,18,31,26,22,22,34,0,0,0,0,0,0,0,0
4314068,431406,-29.451666,-52.963983,Passa Sete,30,30,30,30,30,30,30,10,0,5,0,0,0,0,0,0,0,0,0,0,0,0,0
4314076,431407,-29.745794,-52.278758,Passo do Sobrado,1250,1150,1150,830,880,930,800,800,800,880,1400,1250,1000,800,800,800,790,490,494,570,570,600,650
4314100,431410,-28.261767,-52.407095,Passo Fundo,100,100,80,50,50,30,30,30,20,0,0,0,0,0,0,0,0,0,0,0,0,0,0
4314134,431413,-27.7041,-52.422436,Paulo Bento,0,8,8,8,8,5,5,2,2,1,0,0,0,0,0,0,0,0,0,0,0,0,0
4314159,431415,-29.554856,-51.730293,Paverama,0,0,0,2,2,1,0,0,2,2,2,3,0,0,0,0,0,0,0,0,0,0,0
4314175,431417,-31.733637,-53.58717,Pedras Altas,0,500,2500,2500,1953,2156,2300,2300,2300,2183,2183,2173,1500,2000,2000,1850,1850,2428,1530,810,535,585,665
4314209,431420,-31.863828,-52.826312,Pedro Osório,4100,4100,4100,3400,3400,3600,2720,2720,2900,2855,3350,4671,3478,3855,4154,3909,3549,3836,2782,1987,2201,3505,3156
4314308,431430,-28.421586,-53.656542,Pejuçara,30,30,30,30,0,0,1,1,0,0,0,0,0,0,0,0,0,0,0,0,0,0,0
4314407,431440,-31.719598,-52.34432,Pelotas,7700,9300,8700,8700,9910,10010,7710,8010,10010,9912,10109,9138,6968,7772,7177,8071,8344,8086,8035,7177,7422,7967,8249
4314423,431442,-29.454384,-51.06405,Picada Café,4,4,4,4,4,4,4,4,4,4,4,2,2,2,2,1,1,1,1,1,1,1,1
4314456,431445,-27.511674,-53.214706,Pinhal,20,20,20,20,20,20,10,10,10,10,2,0,0,0,0,0,0,0,0,0,0,0,0
4314464,431446,-27.876665,-51.170103,Pinhal da Serra,0,10,20,10,10,0,10,0,0,0,0,0,0,0,0,0,0,0,0,0,0,0,0
4314472,431447,-29.33536,-53.338638,Pinhal Grande,47,80,110,110,160,150,150,150,120,120,125,0,0,0,0,0,0,0,0,0,0,0,0
4314498,431449,-27.209763,-53.619561,Pinheirinho do Vale,53,53,53,53,53,53,53,53,53,0,0,0,0,0,0,1,1,1,1,1,1,1,1
4314506,431450,-31.580593,-53.38462,Pinheiro Machado,500,500,500,500,20,42,50,50,50,50,50,50,0,0,0,0,0,70,70,70,0,46,48
4314548,431454,-54.45,-29.1,Pinto Bandeira,0,2,0,0,0,0,0,0,0,0,0,0,0,0,0,0,0,0,0,0,0,0,0
4314555,431455,-28.045316,-55.20031,Pirapó,30,10,10,10,10,5,5,7,3,0,0,0,0,0,0,0,0,0,0,0,0,0,0
4314605,431460,-31.444112,-53.104734,Piratini,1080,1080,1080,1080,970,1080,1060,760,750,666,666,657,528,618,543,521,599,650,618,580,535,472,497
4314704,431470,-27.331464,-53.058881,Planalto,50,50,50,50,50,50,50,50,50,50,50,10,4,2,2,2,2,2,2,1,1,1,1
4314753,431475,-29.454546,-51.67089,Poço das Antas,7,4,4,4,5,0,4,2,2,1,0,0,0,0,0,0,0,0,0,0,0,0,0
4314779,431477,-28.061841,-52.675399,Pontão,75,75,40,40,40,40,40,30,20,20,20,23,0,0,0,0,0,0,0,0,0,0,0
4314787,431478,-27.65704,-52.490232,Ponte Preta,20,15,15,10,10,0,10,10,10,10,10,8,0,0,0,0,0,0,0,0,0,0,0
4314803,431480,-29.696259,-51.23015,Portão,5,5,5,5,5,5,164,173,173,173,173,173,170,170,170,170,170,170,170,160,160,160,160
4314902,431490,-30.030037,-51.22866,Porto Alegre,1080,1080,1080,1080,500,500,432,434,500,500,500,273,250,275,250,403,452,411,710,630,370,398,398
4315008,431500,-27.851375,-55.011562,Porto Lucena,10,10,8,22,30,30,5,5,2,2,0,0,0,0,0,0,0,0,0,0,0,0,0
4315057,431505,-27.578635,-54.671952,Porto Mauá,6,6,6,4,4,1,1,1,1,1,1,1,1,1,1,1,1,1,1,1,0,0,0
4315073,431507,-27.734374,-54.899032,Porto Vera Cruz,8,8,8,8,1,1,0,0,0,0,0,0,0,0,0,0,0,0,0,0,0,0,0
4315107,431510,-27.90569,-55.13956,Porto Xavier,50,15,10,5,5,5,5,5,3,1,1,0,0,0,0,0,0,0,0,0,0,0,0
4315131,431513,-29.169761,-52.21087,Pouso Novo,30,30,25,18,18,18,18,18,18,10,6,0,0,0,0,0,0,0,0,0,0,0,0
4315149,431514,-29.526127,-51.1816,Presidente Lucena,6,6,3,3,3,3,3,3,3,3,3,3,2,2,1,1,1,1,1,1,1,1,1
4315156,431515,-29.240309,-52.301717,Progresso,80,74,74,74,74,14,14,15,15,15,10,7,7,7,7,7,7,8,8,6,0,0,0
4315172,431517,-28.756713,-51.473632,Protásio Alves,20,20,15,15,15,15,15,15,15,15,15,0,0,0,0,0,0,0,0,0,0,0,0
4315206,431520,-28.998756,-52.159911,Putinga,8,8,8,8,8,0,8,5,2,0,0,0,0,0,0,0,0,1,1,1,1,1,1
4315305,431530,-30.382868,-56.453647,Quaraí,8200,9800,10738,10637,11493,11180,12193,8400,12452,12580,12290,12700,9284,11279,11387,11925,11255,11485,11558,10773,10584,10009,9908
4315313,431531,-27.821197,-52.442769,Quatro Irmãos,0,8,8,3,3,3,3,3,3,4,4,4,1,0,0,0,0,0,0,0,0,0,0
4315321,431532,-29.351921,-54.071255,Quevedos,20,20,20,10,5,5,3,1,1,0,0,1,0,0,0,0,0,0,0,0,0,0,0
4315354,431535,-28.742361,-53.096722,Quinze de Novembro,28,15,10,8,3,3,3,2,2,1,1,2,0,0,0,0,0,0,0,0,0,0,0
4315404,431540,-27.66154,-53.641934,Redentora,70,70,70,70,70,70,70,70,70,70,50,10,2,0,0,0,0,0,0,0,0,0,0
4315453,431545,-29.112279,-52.072949,Relvado,18,17,5,5,7,7,7,7,5,2,2,2,1,1,1,1,1,2,2,2,0,0,0
4315503,431550,-29.813949,-53.370569,Restinga Sêca,12005,16505,17000,16700,17250,16930,16850,17300,17300,17450,16400,17450,16099,16600,17245,16938,16035,16426,16280,16070,15430,15450,14700
4315552,431555,-27.298398,-52.840058,Rio dos Índios,54,40,25,5,5,2,6,6,6,5,5,5,5,5,2,2,2,2,0,0,0,0,2
4315602,431560,-32.050446,-52.08677,Rio Grande,20000,15000,14700,13800,16800,19540,16240,16700,18300,19800,20590,20500,20500,19350,20000,22092,19277,19267,17323,17190,17422,18292,18451
4315701,431570,-29.985626,-52.379018,Rio Pardo,8003,8003,8503,9545,10900,11500,9600,10520,10520,10820,10320,12000,10000,10000,9500,9250,8160,8200,8500,8550,8100,8500,8100
4315750,431575,-29.642286,-50.473818,Riozinho,20,20,20,10,10,10,10,10,10,8,8,2,2,2,2,2,2,2,2,1,1,0,0
4315909,431590,-27.470403,-53.168531,Rodeio Bonito,22,22,22,22,22,22,22,22,22,22,22,22,1,0,1,0,0,0,0,0,0,0,0
4315958,431595,-28.256344,-54.819427,Rolador,0,110,60,58,15,5,5,5,2,2,2,2,20,20,20,0,0,0,0,0,0,0,0
4316006,431600,-29.640763,-50.573442,Rolante,35,35,80,80,100,85,85,85,85,100,100,100,140,160,160,160,200,250,280,280,280,300,300
4316105,431610,-27.781931,-52.806534,Ronda Alta,50,50,50,30,10,10,5,5,5,5,5,0,0,0,0,0,0,0,0,0,0,0,0
4316204,431620,-27.831816,-52.90616,Rondinha,15,15,15,15,15,10,5,5,5,4,4,0,0,0,0,0,0,0,0,0,0,0,0
4316303,431630,-28.135367,-55.029186,Roque Gonzales,10,10,5,5,6,6,4,4,4,4,4,0,0,0,0,0,0,0,0,0,0,0,0
4316402,431640,-30.244033,-54.945761,Rosário do Sul,22000,20750,21000,21000,21000,21000,20500,15000,22000,22000,20000,22600,19000,19200,20300,20000,19086,20452,19350,17432,16838,14824,15997
4316428,431642,-27.706731,-53.135652,Sagrada Família,12,12,12,12,12,12,12,12,12,12,1,0,0,0,0,0,0,0,0,0,0,0,0
4316436,431643,-28.403286,-53.094107,Saldanha Marinho,18,15,15,15,10,10,8,8,6,6,6,6,6,6,3,0,0,0,0,0,0,0,0
4316451,431645,-29.088681,-53.21331,Salto do Jacuí,60,30,30,30,30,20,20,20,20,10,10,5,5,0,0,0,0,0,0,0,0,0,0
4316477,431647,-28.121697,-54.837742,Salvador das Missões,0,0,0,0,2,1,2,2,1,0,1,1,1,1,0,0,0,0,0,0,0,0,0
4316501,431650,-29.439732,-51.509421,Salvador do Sul,40,40,10,10,10,10,10,10,10,10,10,5,5,5,5,5,5,5,3,4,4,4,6
4316600,431660,-27.944007,-51.813502,Sananduva,10,10,10,10,10,10,10,10,10,10,5,5,0,3,1,0,0,0,0,0,0,0,0
4316709,431670,-28.365167,-53.250527,Santa Bárbara do Sul,24,24,20,20,10,10,10,10,10,8,8,8,8,0,0,0,0,0,0,0,0,0,0
4316733,431673,-28.164451,-51.926671,Santa Cecília do Sul,0,10,10,5,5,2,2,2,2,0,0,0,0,0,0,0,0,0,0,0,0,0,0
4316758,431675,-29.463596,-52.080926,Santa Clara do Sul,21,15,7,5,5,5,0,0,0,0,1,1,1,1,0,0,0,0,0,0,0,0,0
4316808,431680,-29.719768,-52.429929,Santa Cruz do Sul,1637,1587,1587,1650,1650,1650,1650,1650,1620,1620,1620,1620,1620,1620,1620,1620,1700,2054,1900,1900,1750,1900,1720
4316972,431697,-30.345103,-54.090955,Santa Margarida do Sul,0,5550,5000,6000,5000,6000,4500,4800,5000,5000,7050,7200,5000,4750,4882,5000,5000,5234,5192,4829,5217,5300,5300
4316907,431690,-29.685582,-53.808675,Santa Maria,6040,6040,8640,8640,8980,9150,9400,9478,9508,9508,8490,9840,8100,8513,8760,8714,7975,7631,7630,6250,5792,5618,5604
4316956,431695,-29.503516,-50.987255,Santa Maria do Herval,15,15,3,5,5,5,4,4,4,4,4,3,3,3,5,5,5,5,5,5,5,5,5
4317202,431720,-27.86675,-54.478224,Santa Rosa,30,30,30,30,30,10,0,0,0,0,0,0,0,0,0,0,0,0,0,0,0,0,0
4317251,431725,-29.171634,-51.734344,Santa Tereza,2,2,2,2,2,0,0,0,0,0,0,0,0,0,0,0,0,0,0,0,0,0,0
4317301,431730,-33.51986,-53.367006,Santa Vitória do Palmar,70731,62000,62000,59500,75000,75000,53656,46169,56762,64065,66535,70737,67877,70325,70000,68545,68848,70901,68848,65737,63251,68617,68116
4317004,431700,-30.874703,-53.115875,Santana da Boa Vista,365,545,545,545,545,470,300,300,300,310,310,358,550,550,550,1200,322,295,280,250,380,221,150
4317103,431710,-30.889384,-55.534814,Santana do Livramento,12977,11000,11000,11000,11400,11824,11000,7738,10300,10400,10360,11829,8593,8627,9318,9715,10512,10119,9340,8221,8508,8072,9052
4317400,431740,-29.19146,-54.869076,Santiago,130,130,130,20,50,75,75,20,65,63,63,0,0,0,0,0,0,0,0,0,0,0,0
4317509,431750,-28.301938,-54.264143,Santo Ângelo,57,57,57,57,40,70,70,50,50,50,0,0,0,0,0,0,0,0,0,0,0,0,0
4317608,431760,-29.832034,-50.520986,Santo Antônio da Patrulha,11500,11500,12770,13200,13200,13529,13529,11778,13000,13000,13000,13520,14000,14000,13450,14416,13950,13600,13600,13000,12000,12340,11907
4317707,431770,-28.508097,-55.224557,Santo Antônio das Missões,5500,4300,4300,4000,3800,3881,3400,2900,3865,4910,6160,5300,4100,3850,4090,4000,3889,4760,3040,2500,2829,2422,2092
4317558,431755,-28.497445,-52.024633,Santo Antônio do Palma,10,10,10,10,10,10,10,10,10,10,5,5,4,4,4,4,4,4,4,4,4,0,0
4317756,431775,-28.395929,-52.683726,Santo Antônio do Planalto,15,15,10,10,6,5,5,5,5,4,0,0,0,0,0,0,0,0,0,0,0,0,0
4317806,431780,-27.853491,-53.77885,Santo Augusto,110,80,60,50,60,60,80,90,70,70,70,60,30,0,30,20,0,0,0,0,0,0,0
4317905,431790,-27.81993,-54.668748,Santo Cristo,10,10,10,10,15,10,10,0,0,0,0,0,0,0,0,0,0,0,0,0,0,0,0
4317954,431795,-27.909369,-51.643572,Santo Expedito do Sul,50,7,6,10,5,2,0,0,0,0,0,0,0,0,0,0,0,0,0,0,0,0,0
4318002,431800,-28.662838,-56.001029,São Borja,35200,34272,37050,33850,42000,42565,44360,42865,45320,49982,49825,50000,48525,50390,51000,48675,44000,44000,43612,38800,37584,38300,35635
4318051,431805,-28.531763,-51.893187,São Domingos do Sul,5,5,5,4,4,3,2,2,2,2,2,2,0,0,0,0,0,0,0,0,0,0,0
4318101,431810,-29.552716,-55.132386,São Francisco de Assis,5000,5000,4250,4250,4250,4000,4250,4000,4340,4380,4700,4941,3476,3170,3500,3470,3544,4164,3450,2935,2738,2935,3150
4318200,431820,-29.444098,-50.582108,São Francisco de Paula,8,8,5,5,0,0,0,0,0,0,0,0,0,0,0,0,0,0,0,0,0,0,0
4318309,431830,-30.33676,-54.320478,São Gabriel,31000,25450,27000,23700,26000,25000,29500,25000,29000,29000,30300,30000,24760,25000,28000,28500,28000,28953,29000,23380,26690,22550,25800
4318408,431840,-29.959439,-51.728178,São Jerônimo,1350,1350,1300,1200,1350,2000,2000,2000,2200,2000,1800,1500,1200,1200,1250,1250,2040,2150,2040,2040,1240,1200,1200
4318424,431842,-27.82669,-51.825839,São João da Urtiga,20,20,20,20,10,10,10,5,5,5,5,5,0,0,0,0,0,0,0,0,0,0,0
4318432,431843,-29.614676,-53.44635,São João do Polêsine,1800,1850,2007,2030,2050,1950,1900,1900,2000,2000,2000,2000,2000,2033,2033,2033,2033,2033,2033,2033,2033,2033,2033
4318440,431844,-28.498081,-51.702969,São Jorge,20,20,10,10,10,0,0,0,0,0,0,0,0,0,0,0,0,0,0,0,0,0,0
4318457,431845,-27.778183,-53.118775,São José das Missões,100,100,100,100,100,100,100,100,100,100,3,0,0,0,0,0,0,0,0,0,0,0,0
4318465,431846,-29.041447,-52.293016,São José do Herval,20,20,10,7,7,7,4,6,8,3,0,0,0,0,0,0,0,0,0,0,0,0,0
4318481,431848,-29.540049,-51.249598,São José do Hortêncio,9,9,4,4,4,4,4,4,4,4,4,4,4,4,4,4,4,4,4,4,4,10,10
4318499,431849,-27.722585,-54.13355,São José do Inhacorá,17,17,17,17,5,3,1,1,1,1,1,1,1,0,0,0,0,0,0,0,0,0,0
4318507,431850,-32.020609,-52.034202,São José do Norte,1300,2000,2000,2000,2000,2000,2000,2200,2200,2114,2114,2114,2101,2101,2000,2000,2000,1800,2000,1482,1482,1482,2000
4318606,431860,-27.771255,-51.594768,São José do Ouro,100,15,15,5,5,5,5,5,5,5,2,2,2,0,0,0,0,0,0,0,0,0,0
4318614,431861,-29.54347,-51.486384,São José do Sul,0,0,0,0,0,0,0,0,0,0,0,0,0,0,0,0,0,0,0,0,0,0,0
4318804,431880,-31.364024,-51.976915,São Lourenço do Sul,9050,8850,9250,9050,9550,9600,9415,9415,9870,10350,10100,10400,9900,9630,9822,9820,9688,10500,10185,9230,7302,8600,8106
4318903,431890,-28.406647,-54.95966,São Luiz Gonzaga,1520,910,910,410,610,460,410,410,410,410,375,255,250,200,100,100,50,50,0,0,0,0,0
4319109,431910,-27.708929,-53.966923,São Martinho,30,30,15,15,15,15,15,5,5,0,0,0,0,0,0,0,0,0,0,0,0,0,0
4319125,431912,-29.534851,-53.854226,São Martinho da Serra,200,200,200,200,130,200,200,150,150,150,150,140,60,60,45,45,45,45,45,45,45,45,45
4319158,431915,-28.549537,-54.561563,São Miguel das Missões,370,370,120,120,90,90,90,90,100,45,0,0,0,0,0,0,0,0,0,0,0,0,0
4319208,431920,-28.182155,-55.2601,São Nicolau,415,415,370,230,130,110,60,200,200,140,30,30,0,80,80,0,0,0,0,0,0,0,0
4319307,431930,-28.020485,-54.934708,São Paulo das Missões,5,3,3,5,7,10,10,10,6,5,3,0,0,0,0,0,0,0,0,1,0,0,0
4319356,431935,-29.42143,-51.514327,São Pedro da Serra,15,10,10,10,8,8,8,8,8,8,5,4,4,2,1,1,0,0,0,0,0,0,0
4319364,431936,-27.771308,-53.247369,São Pedro das Missões,0,3,3,3,3,3,3,3,3,3,5,5,5,3,0,0,0,0,0,0,0,0,0
4319372,431937,-28.124354,-54.888256,São Pedro do Butiá,3,3,0,0,0,0,0,0,0,0,0,0,0,0,0,0,0,0,0,0,0,0,0
4319406,431940,-29.617531,-54.179991,São Pedro do Sul,3300,3300,4015,4015,4100,4100,4100,3900,3900,4050,4050,4050,3700,4000,4000,3700,3427,3488,3488,3342,4000,4000,4000
4319604,431960,-30.167411,-53.569644,São Sepé,16000,19700,19700,19700,19700,18280,19700,19700,20000,20000,18915,22520,18170,17000,17900,17853,16644,17200,17200,17000,16000,17500,16000
4319703,431970,-27.554318,-52.528479,São Valentim,15,15,15,15,15,15,15,15,15,15,8,4,2,2,0,0,0,0,0,0,0,0,0
4319711,431971,-29.051228,-51.769671,São Valentim do Sul,40,20,15,10,10,10,10,5,5,5,5,2,2,1,2,2,2,2,2,1,0,0,0
4319737,431973,-27.787718,-53.935526,São Valério do Sul,3,3,5,5,8,8,5,5,8,5,1,0,0,0,0,0,0,0,0,0,0,0,0
4319752,431975,-29.37581,-51.368653,São Vendelino,10,5,5,5,5,5,3,3,3,3,3,3,3,3,3,3,0,0,0,0,0,0,0
4319802,431980,-29.692061,-54.676002,São Vicente do Sul,10200,10200,10200,10200,10200,9356,9920,10100,9800,10000,10000,10000,9000,9465,9500,9485,8963,9455,9385,9092,9275,9305,9210
4319901,431990,-29.638554,-51.003623,Sapiranga,10,10,10,10,10,105,105,105,105,105,105,105,105,95,95,5,105,105,105,105,104,104,104
4320107,432010,-27.943595,-52.925461,Sarandi,20,20,20,20,10,8,5,5,5,4,4,0,0,0,0,0,0,0,0,0,0,0,0
4320206,432020,-27.480414,-53.405467,Seberi,330,330,330,330,360,330,330,330,300,330,330,310,70,18,5,5,5,5,5,5,5,5,4
4320230,432023,-27.631163,-53.955885,Sede Nova,3,3,0,0,0,0,0,0,0,0,0,0,0,0,0,0,0,0,0,0,0,0,0
4320263,432026,-29.342618,-52.982074,Segredo,250,250,250,250,250,250,200,200,10,10,10,5,5,5,5,4,4,4,4,4,4,4,4
4320305,432030,-28.627434,-52.956525,Selbach,68,38,20,20,5,5,5,5,2,0,1,2,0,0,0,0,0,0,0,0,0,0,0
4320321,432032,-28.02749,-54.545403,Senador Salgado Filho,50,50,50,50,5,3,0,3,5,3,3,3,3,0,0,0,0,0,0,0,0,0,0
4320354,432035,-30.613303,-51.577982,Sentinela do Sul,1810,1810,1800,1800,1900,1900,2507,2507,2507,2600,2600,2600,2600,2300,2150,2150,2000,2300,2200,2828,2828,2600,2680
4320404,432040,-28.710797,-51.935709,Serafina Corrêa,0,0,1,1,1,0,1,1,1,0,0,0,0,0,0,0,0,0,0,0,0,0,0
4320453,432045,-29.38676,-52.267456,Sério,30,30,30,15,15,15,10,10,10,10,4,4,4,4,4,4,4,4,5,0,0,0,0
4320503,432050,-27.980774,-52.259738,Sertão,50,30,30,20,20,20,20,15,15,15,5,0,0,0,0,0,0,0,0,0,0,0,0
4320552,432055,-30.465428,-51.60425,Sertão Santana,853,853,853,903,903,1103,1100,1100,1200,1200,1200,1200,1370,1330,1350,1350,1350,1350,1350,1330,1330,1300,1400
4320578,432057,-28.130416,-54.463686,Sete de Setembro,30,25,20,5,5,5,5,5,5,5,5,5,0,0,0,0,0,0,0,0,0,0,0
4320602,432060,-27.432793,-52.120656,Severiano de Almeida,70,70,70,35,35,40,20,15,5,5,2,2,0,0,0,0,0,0,0,0,0,0,0
4320651,432065,-29.64525,-53.585237,Silveira Martins,5,5,5,5,0,0,0,0,0,0,0,0,0,0,0,0,0,0,0,0,0,0,0
4320677,432067,-29.529068,-52.521636,Sinimbu,150,50,25,20,25,25,25,25,25,25,25,25,25,25,25,10,8,8,8,8,8,8,8
4320701,432070,-29.414773,-53.025168,Sobradinho,20,5,5,10,10,5,5,0,0,0,0,0,0,0,0,0,0,0,0,0,0,0,0
4320800,432080,-28.827738,-52.509866,Soledade,150,170,170,170,170,140,60,40,30,20,20,10,0,0,0,0,0,0,0,0,0,0,0
4320909,432090,-28.084171,-52.022133,Tapejara,20,17,10,10,10,10,10,10,5,5,5,5,5,5,3,0,0,0,0,0,0,0,0
4321006,432100,-28.62495,-52.871467,Tapera,7,7,9,14,14,14,10,10,10,0,0,0,0,0,0,0,0,0,0,0,0,0,0
4321105,432110,-30.673173,-51.394499,Tapes,12100,12130,12130,12130,12700,12700,13295,13295,14820,14820,18329,18329,15950,15461,16863,17817,16108,17600,16150,16540,17122,18235,18785
4321204,432120,-29.650513,-50.781169,Taquara,175,265,265,565,565,565,558,558,808,708,805,800,900,900,1000,1000,1100,1000,1100,881,882,882,882
4321303,432130,-29.802801,-51.862776,Taquari,1200,1200,1250,1400,1630,2200,2537,2600,2700,2750,2700,2758,2653,2760,2800,2800,2810,2758,2810,3000,3036,3036,2800
4321329,432132,-27.398036,-53.466952,Taquaruçu do Sul,39,39,39,39,39,39,39,39,39,10,10,10,10,2,2,2,2,2,2,2,2,2,2
4321352,432135,-31.288703,-51.088843,Tavares,1800,1770,1760,1870,2864,2184,1515,1590,2235,1880,2124,2166,2166,2166,2250,2530,2650,2900,2560,2340,1932,1741,3860
4321402,432140,-27.372167,-53.75727,Tenente Portela,13,31,15,15,15,15,15,15,5,0,0,5,2,0,0,0,0,0,0,3,3,3,2
4321436,432143,-29.577549,-50.067249,Terra de Areia,130,105,105,105,255,255,255,200,200,200,200,180,80,115,115,115,115,98,100,100,100,100,100
4321451,432145,-29.488914,-51.812817,Teutônia,1,1,1,1,1,1,1,1,1,1,1,0,0,0,0,0,0,0,0,0,0,0,0
4321469,432146,-28.580496,-52.593046,Tio Hugo,0,2,2,2,2,2,2,2,2,0,0,0,0,0,0,0,0,0,0,0,0,0,0
4321477,432147,-27.396899,-54.085392,Tiradentes do Sul,12,8,8,5,5,5,5,5,5,0,0,0,0,0,0,0,0,0,0,0,0,0,0
4321493,432149,-29.472142,-54.228011,Toropi,302,302,315,315,300,300,300,300,300,300,306,300,250,250,250,250,250,250,250,250,250,260,280
4321501,432150,-29.335931,-49.730404,Torres,1950,1950,3450,3450,3450,3500,3500,3000,3500,3000,3100,3551,3526,3550,3550,3550,3550,3550,3550,3550,3550,3550,2980
4321600,432160,-29.987302,-50.130377,Tramandaí,140,140,140,140,350,350,350,350,250,250,250,362,312,312,312,318,318,200,200,200,200,250,515
4321626,432162,-29.299086,-52.057777,Travesseiro,12,12,3,3,3,3,0,0,0,0,0,0,0,0,0,0,0,0,0,0,0,0,0
4321634,432163,-27.499516,-52.149852,Três Arroios,60,60,60,60,60,30,5,5,5,3,3,3,3,3,0,0,0,0,0,0,0,0,0
4321667,432166,-29.445887,-49.915639,Três Cachoeiras,413,413,413,413,513,513,513,513,500,500,500,533,467,467,467,467,420,420,420,420,420,420,430
4321709,432170,-29.516661,-50.783126,Três Coroas,17,17,17,5,5,5,1,1,1,1,1,1,1,1,1,1,1,1,1,1,1,2,1
4321808,432180,-27.77966,-54.235302,Três de Maio,152,152,152,152,75,20,12,6,6,3,3,6,6,6,6,6,6,6,6,6,0,0,0
4321832,432183,-29.538111,-50.064316,Três Forquilhas,42,42,42,42,42,42,42,42,0,0,16,16,0,0,0,0,0,0,0,0,0,0,0
4321857,432185,-27.617527,-52.843714,Três Palmeiras,10,10,10,10,10,10,5,5,5,5,5,0,0,0,0,0,0,0,0,0,0,0,0
4321907,432190,-27.45616,-53.929699,Três Passos,27,18,10,10,10,5,5,5,5,5,5,5,0,0,0,0,0,0,0,2,2,0,2
4321956,432195,-27.517576,-52.892231,Trindade do Sul,30,30,30,30,30,0,5,5,5,5,5,5,2,0,0,0,0,0,0,0,0,0,0
4322004,432200,-29.945204,-51.715313,Triunfo,5000,7000,6000,5500,5200,5400,6000,7000,7000,7000,7000,7000,7100,7100,7100,7100,7100,7100,7300,7500,7500,7500,7000
4322103,432210,-27.65006,-54.433129,Tucunduva,15,15,15,15,15,5,0,0,0,0,0,0,0,0,0,0,0,0,0,0,0,0,0
4322152,432215,-29.10644,-52.957013,Tunas,50,30,30,35,50,50,5,5,0,0,0,0,0,0,0,0,0,0,0,0,0,0,0
4322186,432218,-27.925711,-51.540539,Tupanci do Sul,30,30,25,5,5,0,0,0,0,0,0,0,0,0,0,0,0,0,0,0,0,0,0
4322202,432220,-29.07748,-53.84063,Tupanciretã,125,125,68,60,60,30,30,30,30,30,30,30,30,5,10,0,0,0,0,0,0,0,0
4322251,432225,-29.487913,-51.419825,Tupandi,15,8,8,8,8,8,8,8,8,8,8,8,8,1,1,1,1,1,1,1,1,1,0
4322301,432230,-27.754089,-54.478508,Tuparendi,34,34,34,34,34,24,34,10,10,10,10,10,10,10,10,10,10,10,10,10,0,0,0
4322327,432232,-31.412366,-52.171416,Turuçu,1200,1100,1100,1000,1208,1250,1050,1100,1668,1530,1712,1570,1260,1503,1834,1682,1519,1791,1630,1445,1481,1621,1396
4322343,432234,-28.043565,-54.684511,Ubiretama,15,15,15,15,15,3,5,5,5,5,5,5,0,0,0,0,0,0,0,0,0,0,0
4322350,432235,-28.779899,-52.000417,União da Serra,5,2,2,2,2,2,2,2,2,0,0,0,0,0,0,0,0,0,0,0,0,0,0
4322376,432237,-29.047485,-55.150781,Unistalda,220,75,10,0,0,0,30,30,120,130,127,125,0,100,60,0,0,0,0,0,0,0,0
4322400,432240,-29.759823,-57.081825,Uruguaiana,58290,66200,71580,71580,75875,65144,71124,58095,79853,82700,72000,84400,70900,81414,82748,84519,83150,81555,81235,76319,75000,75760,77963
4322509,432250,-28.502354,-50.936599,Vacaria,8,10,5,0,0,0,0,0,0,0,0,0,0,0,0,0,0,0,0,0,0,0,0
4322533,432253,-29.608828,-52.681355,Vale do Sol,1120,1120,1020,1025,1030,1030,920,920,970,970,970,970,970,950,950,1050,1050,1050,1050,1100,1200,1050,1050
4322541,432254,-29.392281,-51.251197,Vale Real,2,2,2,3,3,3,3,3,2,2,2,2,2,0,0,0,0,0,0,0,0,0,0
4322525,432252,-29.782575,-52.179722,Vale Verde,1500,1600,1600,1410,1680,1780,1700,1460,1725,1720,1520,1516,1110,1150,1100,1100,1175,1180,1175,1110,800,900,800
4322558,432255,-28.476223,-51.844658,Vanini,5,5,8,8,8,8,5,5,5,5,0,0,0,0,0,0,0,0,0,0,0,0,0
4322608,432260,-29.611653,-52.19188,Venâncio Aires,1800,1750,1700,1900,1950,2040,1600,1500,1550,1710,1710,1760,1760,1800,1900,1900,1850,1850,1850,1800,1900,1950,1750
4322707,432270,-29.719858,-52.501103,Vera Cruz,1005,1000,1000,1025,1100,1240,1015,1015,1015,1015,1000,1000,1000,1000,1000,1000,1000,1000,1000,1000,900,920,860
4322806,432280,-28.933957,-51.552287,Veranópolis,0,0,0,5,5,5,5,5,3,3,0,0,0,0,0,0,0,0,0,0,0,0,0
4322855,432285,-29.069894,-51.85947,Vespasiano Correa,15,15,5,5,5,5,5,5,3,3,3,3,3,3,3,0,0,0,0,0,0,0,0
4322905,432290,-27.570953,-52.023799,Viadutos,20,20,20,20,20,20,10,10,10,5,0,4,1,0,0,0,0,0,0,0,0,0,0
4323002,432300,-30.081897,-51.02482,Viamão,18525,15012,15012,17612,19841,19841,22792,22884,23331,24900,23814,25580,24697,26393,27011,27150,26437,26710,24452,20320,18662,18698,19931
4323101,432310,-27.168445,-53.402129,Vicente Dutra,60,60,60,60,60,60,60,60,60,60,60,60,60,30,20,2,2,5,2,2,2,2,2
4323200,432320,-28.560185,-52.747792,Victor Graeff,25,23,10,7,7,7,5,5,5,2,0,0,0,0,0,0,0,0,0,0,0,0,0
4323309,432330,-28.863,-51.549589,Vila Flores,0,0,0,1,1,1,0,0,0,0,0,0,0,0,0,0,0,0,0,0,0,0,0
4323358,432335,-28.107405,-52.146903,Vila Lângaro,20,20,20,10,7,7,5,5,5,3,3,3,3,3,3,1,0,0,0,0,0,0,0
4323408,432340,-28.533314,-52.163538,Vila Maria,28,28,28,28,28,28,20,10,5,5,0,0,0,0,0,0,0,0,0,0,0,0,0
4323457,432345,-30.333959,-53.879196,Vila Nova do Sul,500,500,525,490,540,463,460,460,500,500,400,350,280,162,350,350,300,350,330,200,200,300,300
4323507,432350,-27.370084,-53.49241,Vista Alegre,52,52,52,52,52,52,52,52,30,5,5,5,5,1,1,2,2,2,2,2,2,2,2
4323606,432360,-28.809472,-51.786208,Vista Alegre do Prata,25,10,5,5,5,5,5,5,3,0,0,0,0,0,0,0,0,0,0,0,0,0,0
4323705,432370,-27.289978,-53.70132,Vista Gaúcha,8,5,5,5,5,5,10,10,10,10,10,2,0,0,0,0,0,0,0,0,0,0,0
4323754,432375,-28.352387,-54.499055,Vitória das Missões,120,60,90,90,90,70,70,70,70,20,100,100,30,30,0,0,0,0,0,20,20,20,20
4323770,432377,-29.42345,-51.766156,Westfalia,0,0,0,0,0,0,0,0,0,0,0,0,0,0,0,0,0,0,0,0,0,0,0
4323804,432380,-29.805378,-50.039081,Xangri-lá,0,0,0,0,257,257,257,257,100,100,100,237,237,223,223,200,130,50,120,150,220,346,394
